roi_name,lat,lon,radius_m,related_tickers,notes
新竹科學園區,24.7782,121.0017,2500,"2330,2454,2308","台積電 Fab 12 / 聯發科總部 / 台達電 / 等"
中部科學園區,24.2756,120.6213,3000,"2330,3711","台積電 Fab 15 / 日月光等"
南部科學園區,22.9952,120.2727,3500,"2330,3008,3481","台積電 Fab 14/18 / 大立光 / 群創"
高雄楠梓園區,22.7269,120.3252,2000,"2330","台積電 Fab 22 (建設中)"
蘇州工業園區,31.3013,120.7505,5000,"","中國電子/精密製造聚落"
上海張江高科,31.2087,121.6042,3500,"","中國半導體 (中芯國際 / 華虹)"
深圳南山,22.5444,113.9314,5000,"TCEHY","騰訊 / 中興 / 大疆"
東京秋葉原,35.7022,139.7745,2000,"","日本電子產業代理"
